City_ID,City,Lat,Lng,Max Temp,Humidity,Cloudiness,Wind Speed,Country,Date
0,noyabrsk,63.1994,75.4507,0.39,94,100,3.79,RU,1682097563
1,yellowknife,62.456,-114.3525,2.29,64,75,5.66,CA,1682097563
2,tazovsky,67.4667,78.7,-2.18,96,100,4.77,RU,1682097564
3,gudauta,43.1055,40.6207,11.69,83,46,0.99,GE,1682097564
4,viedma,-40.8135,-62.9967,22.02,33,100,9.3,AR,1682097564
5,itambacuri,-18.0311,-41.685,20.83,86,100,2.05,BR,1682097564
6,dhidhdhoo,6.8833,73.1,29.13,68,32,0.87,MV,1682097564
7,waitangi,-43.9535,-176.5597,16.01,94,100,2.68,NZ,1682097564
8,alice springs,-23.7,133.8833,10.75,87,17,4.12,AU,1682097565
9,utrik,11.2278,169.8474,26.65,74,86,6.99,MH,1682097565
10,invercargill,-46.4,168.35,11.68,82,99,0.89,NZ,1682097565
11,grytviken,-54.2811,-36.5092,1.81,75,18,3.95,GS,1682097565
12,adamstown,-25.066,-130.1015,24.57,76,100,4.97,PN,1682097565
13,iskateley,67.6803,53.1512,-0.62,99,100,1.63,RU,1682097565
14,blackmans bay,-43.0167,147.3167,14.18,81,98,2.62,AU,1682097566
15,sao vicente,-23.9631,-46.3919,26.1,66,11,2.33,BR,1682097283
16,yanda bayo,11.5071,10.7459,37.48,13,85,3.13,NG,1682097566
17,antsiranana,-12.2787,49.2917,26.38,81,96,5.79,MG,1682097566
18,tinajo,29.0788,-13.7081,21.49,68,40,1.54,ES,1682097566
19,ust-nera,64.5667,143.2,-6.86,97,100,1.83,RU,1682097566
20,port-aux-francais,-49.35,70.2167,4.59,65,56,9.17,TF,1682097567
21,fort st. john,56.2499,-120.8529,3.94,48,75,5.66,CA,1682097567
22,vorgashor,67.5833,63.95,-6.01,97,98,2.92,RU,1682097567
23,klyuchi,52.2667,79.1667,-1.61,77,5,2.05,RU,1682097567
24,puerto natales,-51.7236,-72.4875,10.25,43,20,9.26,CL,1682097567
25,pacific grove,36.6177,-121.9166,21.34,60,0,5.81,US,1682097510
26,sulak,43.2734,47.5146,14.94,75,100,5.56,RU,1682097568
27,madinat ash shamal,26.1293,51.2009,26.07,48,0,1.56,QA,1682097568
28,tsiombe,-25.3,45.4833,22.55,82,2,0.99,MG,1682097568
29,aldinga beach,-35.2793,138.4604,15.37,83,0,2.32,AU,1682097568
30,ilha solteira,-20.4328,-51.3425,24.3,47,0,3.02,BR,1682097568
31,kapuskasing,49.4169,-82.4331,1.05,93,100,5.66,CA,1682097338
32,mossel bay,-34.1831,22.146,13.96,60,100,2.8,ZA,1682097569
33,mitsamiouli,-11.3847,43.2844,28.02,77,14,4.61,KM,1682097569
34,nar'yan-mar,67.6713,53.087,-0.52,99,100,1.68,RU,1682097569
35,navoiy,40.0844,65.3792,15.71,25,0,2.06,UZ,1682097569
36,vila velha,-20.3297,-40.2925,25.97,73,0,5.66,BR,1682097569
37,vadso,70.0744,29.7487,-0.51,80,40,2.57,NO,1682097569
38,thompson,55.7435,-97.8558,1.09,37,20,4.63,CA,1682097455
39,stanley,54.868,-1.6985,9.18,83,20,3.6,GB,1682097570
40,bati,11.1833,40.0167,22.16,69,74,0.46,ET,1682097570
41,port elizabeth,-33.918,25.5701,15.73,78,20,3.6,ZA,1682097570
42,kecel,46.5253,19.2519,13.64,65,91,2.89,HU,1682097570
43,tiksi,71.6872,128.8694,-14.99,100,100,2.16,RU,1682097570
44,kandyagash,49.4744,57.4233,12.3,34,100,7.28,KZ,1682097571
45,anadyr,64.75,177.4833,-12.72,92,75,1.0,RU,1682097571
46,aasiaat,68.7098,-52.8699,-2.14,68,99,2.24,GL,1682097571
47,puerto ayora,-0.7393,-90.3518,28.98,98,98,3.58,EC,1682097571
48,peace river,56.2501,-117.286,6.17,38,40,2.57,CA,1682097571
49,carnarvon,-24.8667,113.6333,22.91,59,17,5.89,AU,1682097571
50,polyarnyy,69.1989,33.4478,-0.57,80,100,1.44,RU,1682097572
51,jamestown,42.097,-79.2353,25.8,31,0,8.23,US,1682097395
52,antonio enes,-16.2325,39.9086,25.59,80,14,3.19,MZ,1682097572
53,ushuaia,-54.8,-68.3,6.79,75,40,16.98,AR,1682097497
54,roi et,15.75,103.75,36.19,36,62,5.61,TH,1682097572
55,kayangel,8.0823,134.7173,28.08,79,98,5.79,PW,1682097572
56,longyearbyen,78.2186,15.6401,-13.09,52,20,8.23,SJ,1682097573
57,cabedelo,-6.9811,-34.8339,30.37,62,99,4.54,BR,1682097573
58,correntina,-13.3433,-44.6367,30.05,53,25,3.34,BR,1682097573
59,bayamo,20.3792,-76.6433,30.12,54,3,1.09,CU,1682097573
60,forster,-32.1667,152.5167,15.64,94,67,4.48,AU,1682097573
61,gadani,25.1185,66.7299,27.12,73,0,5.75,PK,1682097573
62,margaret river,-33.95,115.0667,13.9,91,54,3.4,AU,1682097574
63,college,64.8569,-147.8028,1.61,70,75,1.54,US,1682097574
64,obninsk,55.0969,36.6103,7.82,34,56,3.13,RU,1682097574
65,edinburgh of the seven seas,-37.0676,-12.3116,18.02,96,100,6.95,SH,1682097574
66,kolonia,50.9333,6.95,18.87,51,0,4.12,DE,1682097574
67,zaltan,32.947,11.8665,18.34,82,10,9.28,LY,1682097574
68,olonkinbyen,70.9221,-8.7187,-3.39,59,91,6.39,SJ,1682097575
69,keban,38.7978,38.7336,14.39,57,42,1.21,TR,1682097575
70,hermanus,-34.4187,19.2345,12.11,57,100,2.17,ZA,1682097575
71,udachny,66.4167,112.4,-16.27,99,97,1.7,RU,1682097575
72,port mathurin,-19.6833,63.4167,26.37,77,17,8.2,MU,1682097575
73,bilibino,68.0546,166.4372,-12.48,83,39,1.69,RU,1682097575
74,brisas de zicatela,15.8369,-97.0419,30.29,70,0,5.14,MX,1682097576
75,santana,-0.0583,-51.1817,30.1,74,75,7.2,BR,1682097576
76,west island,-12.1568,96.8225,26.99,78,40,6.69,CC,1682097576
77,larkird,35.4894,66.6641,12.47,45,1,0.17,AF,1682097576
78,castillos,-34.1667,-53.8333,22.25,44,92,4.56,UY,1682097576
79,lebu,-37.6167,-73.65,14.34,89,100,3.66,CL,1682097577
80,hotan,37.0997,79.9269,11.74,47,100,2.06,CN,1682097577
81,medina,24.4686,39.6142,31.24,13,20,10.29,SA,1682097577
82,altay,47.8667,88.1167,-0.41,47,2,3.94,CN,1682097577
83,wailua homesteads,22.0669,-159.378,22.44,94,40,4.12,US,1682097577
84,sitka,57.0531,-135.33,11.94,47,75,5.66,US,1682097444
85,remire-montjoly,4.9167,-52.2667,27.02,89,100,7.2,GF,1682097578
86,magadan,59.5667,150.8,-1.58,83,72,8.84,RU,1682097578
87,st. john's,47.5649,-52.7093,4.32,91,100,11.18,CA,1682097414
88,harper,4.375,-7.7169,28.93,75,93,5.97,LR,1682097578
89,proletariy,58.4342,31.7046,8.52,77,81,2.49,RU,1682097578
90,hawaiian paradise park,19.5933,-154.9731,22.8,96,40,1.54,US,1682097578
91,northam,51.0333,-4.2167,8.55,93,88,3.12,GB,1682097579
92,port alfred,-33.5906,26.891,16.77,84,41,1.34,ZA,1682097579
93,daru,-9.0763,143.2092,27.16,79,78,5.94,PG,1682097579
94,bell ville,-32.6259,-62.6887,23.22,35,75,5.76,AR,1682097579
95,howrah,22.5892,88.3103,32.0,40,40,1.54,IN,1682097579
96,baharly,38.4362,57.4316,24.38,14,73,3.95,TM,1682097579
97,shiqian,27.5225,108.2281,18.22,96,99,1.88,CN,1682097580
98,ribeira grande,38.5167,-28.7,17.22,82,75,11.83,PT,1682097580
99,talnakh,69.4865,88.3972,-6.55,89,99,3.55,RU,1682097580
100,samarinda,-0.5,117.15,23.7,97,60,0.59,ID,1682097581
101,puerto baquerizo moreno,-0.9,-89.6,29.55,79,40,4.12,EC,1682097581
102,aykhal,66.0,111.5,-14.17,100,99,1.63,RU,1682097581
103,severo-yeniseyskiy,60.3725,93.0408,-12.45,99,65,1.52,RU,1682097581
104,codrington,-38.2667,141.9667,15.35,78,100,2.29,AU,1682097581
105,howard springs,-12.497,131.047,24.95,89,16,3.34,AU,1682097581
106,eshowe,-28.8865,31.4699,16.21,77,99,3.01,ZA,1682097581
107,ilulissat,69.2167,-51.1,-0.99,74,75,2.06,GL,1682097582
108,churapcha,62.0025,132.4325,-3.9,98,100,1.44,RU,1682097582
109,bosaso,11.2842,49.1816,27.7,73,94,1.38,SO,1682097582
110,porto murtinho,-21.6989,-57.8825,27.33,42,1,2.18,BR,1682097582
111,mayahi,13.9553,7.6712,38.36,9,62,2.41,NE,1682097582
112,elizabeth city,36.2946,-76.2511,30.03,36,0,7.72,US,1682097583
113,pankrushikha,53.8319,80.3406,1.75,42,9,2.85,RU,1682097583
114,cabanas,22.9758,-82.9219,29.23,50,0,3.32,CU,1682097583
115,barcelos,41.5388,-8.6151,15.08,75,89,1.96,PT,1682097583
116,kapa'a,22.0752,-159.319,23.18,94,40,4.12,US,1682097583
117,tezpur,26.6333,92.8,24.52,68,95,1.96,IN,1682097584
118,bargaal,11.2864,51.0773,28.25,67,95,2.3,SO,1682097584
119,la ronge,55.1001,-105.2842,4.12,32,100,3.09,CA,1682097584
120,cestos city,5.46,-9.5828,28.55,70,100,4.47,LR,1682097584
121,general conesa,-40.1,-64.4333,23.8,28,100,9.29,AR,1682097584
122,chonchi,-42.6128,-73.8092,16.73,69,66,0.7,CL,1682097584
123,avarua,-21.2078,-159.775,20.03,100,20,1.54,CK,1682097585
124,bardai,11.65,7.2333,35.85,18,100,3.14,NG,1682097585
125,at taj,24.2049,23.2857,26.93,11,0,2.03,LY,1682097585
126,island harbour,50.724,-1.2758,11.29,74,48,0.89,GB,1682097585
127,san ignacio rio muerto,27.4167,-110.2333,26.29,9,2,2.58,MX,1682097585
128,necochea,-38.5473,-58.7368,20.97,36,100,8.1,AR,1682097320
129,sao miguel do araguaia,-13.275,-50.1628,30.15,62,6,2.66,BR,1682097586
130,vradiyivka,47.862,30.5919,7.63,89,100,5.99,UA,1682097586
131,port lincoln,-34.7333,135.8667,15.89,81,0,3.09,AU,1682097586
132,burang,30.25,81.1667,-9.93,97,85,1.49,CN,1682097586
133,zhangjiakou,40.81,114.8794,7.32,59,100,2.87,CN,1682097586
134,iqaluit,63.7506,-68.5145,-2.15,92,100,5.66,CA,1682097586
135,la passe,45.5549,-0.8967,20.13,63,100,4.88,FR,1682097587
136,chibougamau,49.9168,-74.3659,2.79,56,100,4.12,CA,1682097587
137,minas de marcona,-15.2119,-75.1103,21.24,63,92,5.88,PE,1682097587
138,kristiansund,63.1115,7.732,14.03,43,0,1.03,NO,1682097587
139,madang,-5.2246,145.7966,25.4,90,81,0.94,PG,1682097587
140,papatowai,-46.5619,169.4708,11.18,88,69,2.29,NZ,1682097588
141,babu,24.4167,111.5167,23.05,97,12,1.48,CN,1682097588
142,happy valley-goose bay,53.3168,-60.3315,4.17,60,75,6.17,CA,1682097588
143,mount gambier,-37.8333,140.7667,11.7,90,38,1.47,AU,1682097588
144,edson,53.5835,-116.4356,0.08,64,100,4.12,CA,1682097588
145,bethel,41.3712,-73.414,22.97,44,0,5.14,US,1682097561
146,kinwat,19.6333,78.2,30.75,36,36,1.69,IN,1682097589
147,rio grande,-32.035,-52.0986,25.06,56,47,4.76,BR,1682097589
148,pisco,-13.7,-76.2167,24.03,73,82,4.12,PE,1682097589
149,albany,42.6001,-73.9662,24.29,37,44,2.68,US,1682097569
150,mumford,5.2618,-0.759,28.53,78,94,6.89,GH,1682097493
151,comodoro rivadavia,-45.8667,-67.5,13.92,51,20,8.75,AR,1682097589
152,isafjordur,66.0755,-23.124,1.02,64,75,5.14,IS,1682097589
153,tikamgarh,24.745,78.8333,29.68,13,46,2.95,IN,1682097590
154,mundemba,4.9479,8.8724,26.83,78,91,2.76,CM,1682097590
155,ojiya,37.3,138.8,6.75,70,78,1.52,JP,1682097590
156,prainha,-1.8,-53.48,31.35,57,78,1.89,BR,1682097590
157,saipan,15.1355,145.701,27.39,100,40,7.2,MP,1682097590
158,uturoa,-16.7333,-151.4333,28.27,77,100,7.23,PF,1682097590
159,la mira,18.035,-102.3266,29.88,53,11,4.13,MX,1682097591
160,cedeira,43.6797,-8.0209,13.87,79,100,9.4,ES,1682097591
161,sokoni,-6.4333,39.55,27.29,83,100,6.71,TZ,1682097591
162,calvinia,-31.4707,19.776,15.14,23,99,1.89,ZA,1682097591
163,iranshahr,27.2025,60.6848,30.19,20,0,2.06,IR,1682097591
164,bredasdorp,-34.5322,20.0403,13.31,58,100,1.92,ZA,1682097591
165,yuzhno-kurilsk,44.0306,145.8556,3.63,70,12,8.5,RU,1682097592
166,bel ombre,-4.6167,55.4167,28.91,74,20,1.54,SC,1682097592
167,as sulayyil,20.4607,45.5779,25.14,56,90,4.27,SA,1682097592
168,san luis de la loma,17.2706,-100.8939,30.64,47,4,4.72,MX,1682097592
169,gizo,-8.103,156.8419,27.27,78,60,1.9,SB,1682097592
170,bairnsdale,-37.8333,147.6167,12.81,92,11,1.87,AU,1682097592
171,nabire,-3.3667,135.4833,24.6,92,67,1.62,ID,1682097592
172,kingscliff,-28.2667,153.5667,19.29,77,75,6.17,AU,1682097593
173,gardez,33.5974,69.2259,11.27,35,59,3.5,AF,1682097593
174,axim,4.8699,-2.2405,28.69,76,61,5.58,GH,1682097593
175,puerto armuelles,8.2833,-82.8667,30.99,64,99,2.39,PA,1682097593
176,ansbach,49.3,10.5833,18.38,45,40,4.63,DE,1682097593
177,sterling,39.0062,-77.4286,31.22,40,0,3.13,US,1682097589
178,thinadhoo,0.5333,72.9333,29.39,70,92,2.68,MV,1682097594
179,fort liberte,19.6678,-71.8397,29.0,64,11,4.5,HT,1682097594
180,nadvoitsy,63.8667,34.3167,1.35,98,99,2.15,RU,1682097594
181,ibaiti,-23.8486,-50.1878,19.36,50,0,4.17,BR,1682097594
182,afaahiti,-17.75,-149.2833,25.93,80,100,7.92,PF,1682097594
183,limassol,34.675,33.0333,17.04,82,20,6.69,CY,1682097594
184,kulgam,33.65,75.0167,8.26,73,42,0.81,IN,1682097595
185,veinticinco de mayo,-35.4323,-60.1727,22.21,51,100,3.58,AR,1682097595
186,san patricio,28.017,-97.5169,25.97,53,19,3.49,US,1682097595
187,whakatane,-37.9585,176.9854,19.73,94,83,1.79,NZ,1682097595
188,whitehorse,60.7161,-135.0538,2.28,83,58,0.93,CA,1682097331
189,ostrovskoye,57.8057,42.2433,6.06,72,29,2.51,RU,1682097595
190,darhan,49.4867,105.9228,-1.64,32,10,1.02,MN,1682097595
191,sidrolandia,-20.9319,-54.9614,23.59,54,0,4.08,BR,1682097596
192,banda aceh,5.5577,95.3222,27.56,80,97,0.29,ID,1682097596
193,santiago de cao,-7.9589,-79.2392,27.07,61,20,3.09,PE,1682097596
194,leo,11.1,-2.1,39.3,18,70,2.61,BF,1682097596
195,santo tome,-31.6627,-60.7653,22.25,53,57,3.13,AR,1682097567
196,pierre,44.3683,-100.351,1.59,73,100,11.83,US,1682097372
197,nantucket,41.2835,-70.0995,13.38,64,0,4.12,US,1682097347
198,iskushuban,10.2837,50.23,27.53,63,100,6.39,SO,1682097597
199,colonia,50.9333,6.95,18.87,51,0,4.12,DE,1682097597
200,youssoufia,32.2463,-8.5294,22.79,31,3,7.69,MA,1682097597
201,pariaman,-0.619,100.12,25.93,88,97,0.97,ID,1682097597
202,punta arenas,-53.15,-70.9167,8.06,53,75,11.32,CL,1682097429
203,ulsteinvik,62.3432,5.8487,15.5,75,14,0.89,NO,1682097598
204,laukaa,58.7372,29.8453,10.12,75,86,1.73,RU,1682097598
205,new norfolk,-42.7826,147.0587,14.84,72,100,1.34,AU,1682097598
206,lucapa,-8.4192,20.7447,20.97,91,100,1.23,AO,1682097598
207,beroroha,-21.6667,45.1667,25.77,61,7,1.98,MG,1682097598
208,figuig (centre),32.1089,-1.2286,26.81,11,7,1.89,MA,1682097598
209,ancud,-41.8697,-73.8203,14.38,78,51,2.87,CL,1682097599
210,hasilpur,29.7122,72.5553,28.87,9,1,1.37,PK,1682097599
211,sundsvall,62.3913,17.3063,16.98,31,0,4.12,SE,1682097599
212,la'ie,21.6477,-157.9253,25.98,91,34,3.43,US,1682097599
213,cidreira,-30.1811,-50.2056,21.51,59,8,4.06,BR,1682097599
214,saint-philippe,-21.3585,55.7679,25.77,83,39,6.41,RE,1682097600
215,pathein,16.7833,94.7333,27.18,80,0,4.57,MM,1682097600
216,cooper's town,26.8667,-77.5167,23.62,73,6,5.43,BS,1682097600
217,hami,42.8,93.45,14.0,11,100,2.85,CN,1682097601
218,georgetown,5.4112,100.3354,28.86,83,20,2.06,MY,1682097476
219,kavaratti,10.5669,72.642,28.96,72,67,3.4,IN,1682097554
220,nogliki,51.8333,143.1667,-0.8,97,100,8.62,RU,1682097602
221,hithadhoo,-0.6,73.0833,29.32,73,18,3.34,MV,1682097602
222,balqash,46.8481,74.995,7.32,32,0,1.31,KZ,1682097602
223,zomba,-15.386,35.3188,19.44,90,36,1.18,MW,1682097602
224,revda,56.801,59.9303,5.3,93,100,1.81,RU,1682097603
225,korla,41.7597,86.1469,14.47,24,100,1.32,CN,1682097603
226,ajaccio,42.0,8.9167,15.03,68,0,3.09,FR,1682097603
227,virrat,62.2476,23.78,7.7,84,93,1.78,FI,1682097383
228,aquiraz,-3.9014,-38.3911,31.05,69,64,5.28,BR,1682097603
229,al jawf,29.5,38.75,23.5,25,0,4.24,SA,1682097603
230,usinsk,65.9939,57.5281,-2.59,91,100,4.05,RU,1682097604
231,al mijlad,11.0333,27.7333,35.63,7,2,4.22,SD,1682097604
232,lompoc,34.6391,-120.4579,24.24,48,0,6.69,US,1682097605
233,keflavik,64.0049,-22.5624,9.95,75,20,8.23,IS,1682097605
234,norilsk,69.3535,88.2027,-6.43,92,96,3.27,RU,1682097606
235,tromso,69.6496,18.957,0.21,93,100,3.6,NO,1682097606
236,sungai penuh,-2.0833,101.3833,18.94,97,99,0.72,ID,1682097606
237,vilyuysk,63.7553,121.6247,-7.92,95,100,2.02,RU,1682097606
238,qaqortoq,60.7167,-46.0333,6.28,62,98,2.33,GL,1682097607
239,atafu village,-8.5421,-172.5159,28.25,76,39,4.21,TK,1682097607
240,mejit,10.2753,170.8646,26.83,74,97,7.01,MH,1682097607
241,baotou,40.6522,109.8222,8.14,63,100,2.4,CN,1682097607
242,ha'il,27.5219,41.6907,25.01,38,40,2.06,SA,1682097607
243,katsuura,35.1333,140.3,14.98,65,100,10.69,JP,1682097608
244,anloga,5.7947,0.8973,29.19,73,92,6.46,GH,1682097608
245,konstantinovskoye,45.2992,42.6367,11.32,72,99,6.35,RU,1682097608
246,lihue,21.9789,-159.3672,22.77,92,40,4.12,US,1682097447
247,dickinson,29.4608,-95.0513,25.08,75,75,1.54,US,1682097375
248,thohoyandou,-22.9456,30.485,22.17,26,84,0.79,ZA,1682097609
249,port hedland,-20.3167,118.5667,21.03,56,77,3.09,AU,1682097609
250,tarija,-21.5355,-64.7296,24.95,36,52,2.06,BO,1682097609
251,jakhal,29.8,75.8333,23.49,37,18,2.48,IN,1682097609
252,cam ranh,11.9214,109.1591,26.98,78,0,0.0,VN,1682097609
253,coquimbo,-29.9533,-71.3436,18.85,68,100,2.06,CL,1682097345
254,tolanaro,-25.0319,46.9987,25.04,83,20,1.03,MG,1682097610
255,saint-pierre,-21.3393,55.4781,25.82,73,0,1.54,RE,1682097505
256,mudgee,-32.5943,149.5871,8.68,97,5,2.33,AU,1682097610
257,port saint john's,-31.6229,29.5448,19.23,58,44,1.63,ZA,1682097610
258,lata,40.1629,-8.3327,14.34,95,100,1.22,PT,1682097611
259,pitalito,1.8497,-76.0479,22.87,81,100,1.82,CO,1682097611
260,wotho,10.1657,166.0102,27.2,80,100,8.31,MH,1682097611
261,leava,-14.3,-178.1667,27.7,77,26,5.59,WF,1682097611
262,camargo,27.6667,-105.1667,25.41,8,0,5.64,MX,1682097428
263,pacasmayo,-7.4006,-79.5714,25.43,79,99,1.9,PE,1682097612
264,bodo,67.28,14.405,6.02,94,75,9.26,NO,1682097430
265,undurkhaan,47.3194,110.6556,-0.91,38,2,6.01,MN,1682097612
266,hamilton,39.1834,-84.5333,20.7,73,40,3.6,US,1682097319
267,priob'ye,62.5206,65.5964,-1.95,95,100,2.22,RU,1682097613
268,krasnyy chikoy,50.3643,108.7512,-7.45,58,4,0.8,RU,1682097613
269,pimenta bueno,-11.6725,-61.1936,30.51,62,80,0.78,BR,1682097613
270,saldanha,-33.0117,17.9442,14.03,59,100,4.46,ZA,1682097613
271,vilyuchinsk,52.9306,158.4028,3.15,90,100,15.15,RU,1682097613
272,ji'an,27.1172,114.9793,21.74,91,48,1.04,CN,1682097614
273,sasovo,54.3537,41.9199,10.09,65,100,3.29,RU,1682097614
274,rajapalaiyam,9.45,77.5667,28.79,65,90,2.19,IN,1682097614
275,bezhetsk,57.7851,36.6965,7.69,81,100,3.38,RU,1682097614
276,east london,-33.0153,27.9116,16.52,88,100,1.54,ZA,1682097614
277,badger,64.8,-147.5333,1.56,71,40,1.54,US,1682097614
278,palopo,-2.9996,120.1921,25.2,86,100,1.37,ID,1682097615
279,nemuro,43.3236,145.575,3.92,63,1,9.32,JP,1682097615
280,pokaran,26.9167,71.9167,29.49,6,8,4.59,IN,1682097615
281,petropavlovsk-kamchatsky,53.0452,158.6483,2.33,60,75,10.0,RU,1682097615
282,casas grandes,30.3667,-107.95,19.44,13,0,2.6,MX,1682097615
283,nishinoomote,30.7333,131.0,20.09,84,100,9.41,JP,1682097616
284,nouadhibou,20.931,-17.0347,21.99,64,75,8.75,MR,1682097616
285,togur,58.3631,82.8265,-1.13,84,56,3.19,RU,1682097616
286,kruisfontein,-34.0033,24.7314,13.27,71,80,2.64,ZA,1682097616
287,jacobabad,28.281,68.4388,29.58,6,0,1.22,PK,1682097616
288,ballina,-28.8667,153.5667,15.43,72,92,6.19,AU,1682097617
289,nova vicosa,-17.8919,-39.3719,23.79,91,100,7.54,BR,1682097617
290,manokwari,-0.8667,134.0833,25.28,88,97,2.75,ID,1682097617
291,podgornoye,51.735,39.1496,7.12,93,100,5.0,RU,1682097617
292,nadym,65.5333,72.5167,-0.21,99,100,3.23,RU,1682097617
293,barranca,-10.75,-77.7667,25.84,70,84,4.88,PE,1682097617
294,el granada,37.5027,-122.4694,21.98,64,40,1.79,US,1682097617
295,fort bragg,35.139,-79.006,28.84,33,0,4.63,US,1682097399
296,lady frere,-31.7031,27.2329,11.41,46,0,5.45,ZA,1682097618
297,kantunilkin,21.0917,-87.45,34.47,35,5,2.83,MX,1682097618
298,shitanjing,39.2342,106.3439,5.74,73,100,2.89,CN,1682097618
299,show low,34.2542,-110.0298,15.04,16,0,0.89,US,1682097618
300,kousa,25.9141,32.7636,29.12,7,49,5.1,EG,1682097619
301,loukhi,66.0764,33.0381,1.96,97,97,1.91,RU,1682097619
302,kiwira,-9.1667,33.5333,18.57,99,100,1.78,TZ,1682097619
303,weno,7.4515,151.8468,28.12,74,88,3.07,FM,1682097619
304,dzilam gonzalez,21.2833,-88.9333,34.43,39,12,2.22,MX,1682097619
305,liuduzhai,27.3661,110.935,17.07,93,100,2.64,CN,1682097619
306,fuengirola,36.54,-4.6247,25.0,41,20,6.17,ES,1682097441
307,hastings,50.8552,0.5729,11.89,76,42,1.12,GB,1682097620
308,vylkove,45.4021,29.586,8.95,85,100,6.33,UA,1682097620
309,nova borova,50.693,28.6345,10.52,69,97,2.22,UA,1682097620
310,sisimiut,66.9395,-53.6735,1.3,75,97,0.34,GL,1682097620
311,masterton,-40.9597,175.6575,14.38,99,100,1.69,NZ,1682097620
312,mount isa,-20.7333,139.5,22.87,38,0,4.63,AU,1682097621
313,palangkaraya,-2.2,113.8333,23.79,95,94,0.72,ID,1682097621
314,zaozersk,69.4005,32.4476,-1.38,83,100,2.37,RU,1682097621
315,kilju,40.9642,129.3278,5.25,32,90,2.62,KP,1682097621
316,robertsport,6.7533,-11.3686,28.02,71,100,6.25,LR,1682097622
317,serdar,38.9764,56.2757,25.42,10,63,8.7,TM,1682097622
318,safi,32.1667,-8.8333,20.57,36,1,6.63,MA,1682097622
319,vetluzhskiy,58.3902,45.4654,5.71,67,30,2.79,RU,1682097622
320,bovril,-31.3431,-59.4451,22.54,33,88,5.93,AR,1682097622
321,pangoa,-12.1167,-73.0,25.13,79,93,1.36,PE,1682097622
322,luanda,-8.8368,13.2343,27.0,83,75,3.09,AO,1682097418
323,natal,-5.795,-35.2094,29.36,70,40,6.69,BR,1682097556
324,lulea,65.5842,22.1547,8.04,66,0,1.54,SE,1682097623
325,simpang,-1.2667,104.0833,24.11,94,97,1.04,ID,1682097623
326,inirida,3.8653,-67.9239,31.06,61,95,0.88,CO,1682097623
327,znamensk,48.5842,45.7338,11.33,62,76,4.25,RU,1682097623
328,gadzhiyevo,69.2551,33.3362,-1.04,83,100,1.46,RU,1682097624
329,vierzon,47.2101,2.0625,15.75,56,90,1.22,FR,1682097624
330,halmstad,56.6745,12.8568,16.11,33,0,4.12,SE,1682097624
331,zemetchino,53.4973,42.6163,8.31,79,100,3.32,RU,1682097624
332,shache,38.4167,77.2406,12.36,37,96,1.27,CN,1682097624
333,guerrero negro,27.9769,-114.0611,23.69,31,0,1.65,MX,1682097625
334,alaghsas,17.0187,8.0168,38.58,7,58,7.35,NE,1682097625
335,nizao,18.25,-70.2,31.04,58,1,5.06,DO,1682097379
336,callao,-12.0667,-77.15,27.16,54,0,4.63,PE,1682097625
337,kosh-agach,50.0,88.6667,-10.02,71,16,2.37,RU,1682097625
338,emirgazi,37.9022,33.8372,12.08,48,71,1.32,TR,1682097625
339,tazacorte,28.629,-17.9293,21.54,84,20,4.02,ES,1682097626
340,berdigestyakh,62.0989,126.6992,-7.77,98,100,1.74,RU,1682097626
341,paranaiba,-19.6772,-51.1908,23.94,54,9,3.03,BR,1682097626
342,ritchie,-29.038,24.6028,13.56,17,0,2.81,ZA,1682097626
343,faya-largeau,17.9257,19.1043,35.7,9,0,3.06,TD,1682097626
344,bengkulu,-3.8004,102.2655,25.06,92,100,1.66,ID,1682097627
345,genhe,50.7833,121.5167,-12.0,97,64,1.32,CN,1682097627
346,surazh,53.0175,32.3918,11.38,52,89,4.71,RU,1682097627
347,greymouth,-42.4667,171.2,14.83,90,98,1.4,NZ,1682097627
348,sint michiel liber,12.15,-68.9833,29.9,70,40,6.17,CW,1682097627
349,stepnogorsk,52.3544,71.8869,0.48,70,4,3.63,KZ,1682097628
350,malpe,13.35,74.7167,27.83,76,9,1.96,IN,1682097628
351,praia da vitoria,38.7333,-27.0667,18.14,77,75,10.06,PT,1682097628
352,chos malal,-37.3781,-70.2709,20.06,36,94,3.13,AR,1682097628
353,tamanrasset,22.785,5.5228,27.95,10,40,8.75,DZ,1682097628
354,ghat,24.9647,10.1728,33.86,8,37,8.2,LY,1682097628
355,mbeni,-11.5014,43.3775,24.95,78,11,3.64,KM,1682097629
356,kerikeri,-35.2268,173.9474,20.51,97,100,1.34,NZ,1682097629
357,saint john,45.2727,-66.0677,7.0,49,17,1.15,CA,1682097630
358,fale old settlement,-9.3852,-171.2468,28.43,76,47,4.72,TK,1682097631
359,erzincan,39.75,39.5,9.61,53,40,5.66,TR,1682097631
360,angostura,25.3667,-108.1833,29.41,20,61,2.81,MX,1682097631
361,marsabit,2.3284,37.9899,22.89,61,88,3.95,KE,1682097631
362,kearney,40.6995,-99.0815,7.95,35,40,8.75,US,1682097631
363,yima,34.7381,111.8839,4.0,85,100,3.48,CN,1682097632
364,esqueda,30.7167,-109.5833,21.4,11,0,1.79,MX,1682097632
365,kasimov,54.9411,41.3953,11.39,51,100,3.49,RU,1682097632
366,yoloten,37.2989,62.3597,20.65,10,0,5.55,TM,1682097632
367,tonning,54.3167,8.95,17.21,74,4,7.1,DE,1682097632
368,douentza,14.9951,-2.9517,39.84,9,82,5.55,ML,1682097633
369,sinabang,2.4803,96.3801,26.96,83,78,0.74,ID,1682097496
370,bamboo flat,11.7,92.7167,27.83,78,2,3.71,IN,1682097633
371,urus-martan,43.1286,45.5431,15.51,77,80,1.17,RU,1682097633
372,guozhen,34.3659,107.359,4.74,96,100,2.18,CN,1682097633
373,san antonio de pale,-1.4014,5.6325,27.06,75,100,4.81,GQ,1682097634
374,bathsheba,13.2167,-59.5167,29.34,74,20,6.17,BB,1682097634
375,hasaki,35.7333,140.8333,16.27,58,100,11.74,JP,1682097634
376,akureyri,65.6835,-18.0878,1.96,69,75,4.63,IS,1682097634
377,geraldton,-28.7667,114.6,16.23,67,100,2.06,AU,1682097634
378,saint-francois,46.4154,3.9054,18.69,65,0,3.6,FR,1682097573
379,mhamid,29.82,-5.72,31.84,12,5,2.08,MA,1682097635
380,abu dhabi,24.4667,54.3667,28.3,59,0,2.57,AE,1682097424
381,mili,6.0815,171.735,27.39,80,82,3.9,MH,1682097635
382,tabua,40.3327,-8.0141,13.42,93,100,1.79,PT,1682097635
383,nuuk,64.1835,-51.7216,0.34,86,75,1.03,GL,1682097467
384,meadow lakes,61.6247,-149.6011,5.14,59,0,0.0,US,1682097635
385,quellon,-43.1167,-73.6167,14.14,77,40,0.0,CL,1682097430
386,puerto lempira,15.2667,-83.7667,31.08,66,40,5.14,HN,1682097636
387,lechinta,47.0167,24.35,10.87,69,56,1.53,RO,1682097636
388,las tablas,7.7667,-80.2833,30.97,52,83,3.96,PA,1682097636
389,palapag,12.5458,125.1147,25.05,88,95,2.3,PH,1682097636
390,plaza huincul,-38.926,-69.2086,19.52,45,99,4.02,AR,1682097622
391,piikkio,60.4248,22.516,14.66,53,0,4.12,FI,1682097637
392,punganuru,13.3667,78.5833,26.9,64,87,4.6,IN,1682097637
393,belyayevka,51.3974,56.4096,12.48,46,100,4.1,RU,1682097637
394,acajutla,13.5928,-89.8275,30.36,64,100,3.5,SV,1682097637
395,bujumbura,-3.3822,29.3644,23.24,86,100,2.2,BI,1682097637
396,sydney,-33.8679,151.2073,16.61,85,0,4.12,AU,1682097158
397,rafaela,-31.2503,-61.4867,22.78,35,78,1.79,AR,1682097624
398,kourou,5.1552,-52.6478,27.03,91,100,3.57,GF,1682097638
399,kulhudhuffushi,6.6221,73.07,29.05,66,10,0.47,MV,1682097638
400,kodiak,57.79,-152.4072,4.73,60,0,2.06,US,1682097638
401,gouyave,12.1646,-61.7296,28.43,79,40,8.23,GD,1682097639
402,taitung city,22.7583,121.1444,23.62,85,93,2.8,TW,1682097639
403,freetown,8.484,-13.2299,27.84,74,75,3.09,SL,1682097639
404,darwin,-12.4611,130.8418,24.99,88,100,2.57,AU,1682097639
405,roma,43.2128,-75.4557,27.15,42,0,4.12,US,1682097639
406,floro,61.5996,5.0328,18.04,58,0,2.57,NO,1682097640
407,ciudad bolivar,8.1222,-63.5497,32.89,47,100,4.22,VE,1682097640
408,nova sintra,14.8667,-24.7167,19.63,77,21,8.83,CV,1682097373
409,tocopilla,-22.092,-70.1979,22.7,66,6,4.14,CL,1682097390
410,fortuna,40.5982,-124.1573,16.07,66,99,0.45,US,1682097641
411,constantia,44.1833,28.65,10.39,78,87,4.82,RO,1682097641
412,guarapari,-20.6667,-40.4975,24.38,59,83,4.87,BR,1682097641
413,ixtapa,20.7,-105.2,26.57,61,40,4.63,MX,1682097641
414,boyolangu,-8.1181,111.8935,24.56,93,82,1.18,ID,1682097642
415,wamba,8.9333,8.6,25.38,73,100,3.72,NG,1682097642
416,rice lake,45.5061,-91.7382,5.82,90,100,6.69,US,1682097642
417,kakata,6.53,-10.3517,30.49,54,89,4.31,LR,1682097643
418,hailar,49.2,119.7,-3.53,36,3,3.1,CN,1682097643
419,broome,42.2506,-75.833,28.17,41,0,4.12,US,1682097643
420,dunedin,-45.8742,170.5036,11.56,10,14,1.99,NZ,1682097404
421,ridder,50.355,83.5133,-6.3,83,6,2.44,KZ,1682097643
422,guiping,23.3925,110.0814,25.31,89,4,1.08,CN,1682097643
423,kingston,17.997,-76.7936,29.53,68,20,5.14,JM,1682097458
424,alofi,-19.0595,-169.9187,20.94,88,53,1.54,NU,1682097644
425,sao tome,0.3365,6.7273,27.04,75,100,4.65,ST,1682097644
426,jertih,5.7336,102.4897,25.84,90,89,1.36,MY,1682097644
427,red hill,33.9996,-79.2581,28.4,39,0,4.7,US,1682097644
428,xapuri,-10.6517,-68.5044,29.25,56,100,1.76,BR,1682097645
429,poronaysk,49.2167,143.1167,1.79,68,100,8.58,RU,1682097645
430,fuerte olimpo,-21.0415,-57.8738,27.95,41,2,2.03,PY,1682097645
431,amga,60.8953,131.9608,-12.85,100,96,0.87,RU,1682097645
432,taoudenni,22.6783,-3.9836,34.24,5,19,8.01,ML,1682097645
433,north ward,-19.2454,146.8075,22.95,78,58,2.57,AU,1682097646
434,namestovo,49.4079,19.4803,8.77,100,62,2.32,SK,1682097646
435,tsuruoka,38.7217,139.8217,7.82,48,20,6.74,JP,1682097646
436,farkhar,36.5729,69.8578,13.22,59,6,0.89,AF,1682097646
437,holualoa,19.6228,-155.9522,23.21,86,20,1.34,US,1682097542
438,lensk,60.7253,114.9278,-7.81,94,50,1.31,RU,1682097647
439,santa cruz,-17.8,-63.1667,28.03,51,20,4.63,BO,1682097350
440,palikir - national government center,6.9248,158.1611,25.41,89,100,0.0,FM,1682097647
441,riachao,-7.3619,-46.6172,28.39,69,41,2.73,BR,1682097647
442,sao joao da barra,-21.6403,-41.0511,26.05,60,49,4.71,BR,1682097647
443,swakopmund,-22.6833,14.5333,18.47,85,100,0.45,NA,1682097647
444,laojunmiao,39.8333,97.7333,0.56,85,61,3.13,CN,1682097648
445,kuching,1.55,110.3333,26.79,89,20,1.54,MY,1682097432
446,paradip garh,20.3167,86.6167,29.72,44,44,3.06,IN,1682097648
447,hadibu,12.65,54.0333,28.49,70,30,3.27,YE,1682097649
448,kencong,-8.2833,113.3667,24.42,92,91,1.01,ID,1682097649
449,pontevedra,42.431,-8.6444,15.42,82,86,3.33,ES,1682097649
450,sainte-adresse,49.5089,0.0845,12.59,66,75,4.12,FR,1682097649
451,pandan,14.0453,124.1694,25.7,84,91,2.8,PH,1682097649
452,wellington,-41.2866,174.7756,16.15,97,100,2.57,NZ,1682097414
453,gorno-altaysk,51.9561,85.955,-3.76,98,51,1.24,RU,1682097649
454,terenos,-20.4422,-54.8603,25.84,47,0,4.12,BR,1682097650
455,rustaq,23.3908,57.4244,27.35,37,41,0.15,OM,1682097650
456,antipolo,14.5864,121.1753,28.88,76,75,1.03,PH,1682097650
457,santiago de cuba,20.0247,-75.8219,28.06,65,20,3.6,CU,1682097651
458,crane,31.3974,-102.3501,21.78,13,0,6.26,US,1682097652
459,gisborne,-38.6533,178.0042,15.78,80,97,2.54,NZ,1682097652
460,istgah-e rah ahan-e garmsar,35.2346,52.3094,26.29,15,56,0.36,IR,1682097652
461,ujae,8.9322,165.7642,27.14,83,97,8.41,MH,1682097652
462,pervomayskoye,43.919,46.7102,16.15,64,99,3.68,RU,1682097652
463,alvand,36.3187,49.1678,13.61,52,100,4.55,IR,1682097653
464,kirensk,57.7853,108.1119,-5.81,94,100,1.32,RU,1682097653
465,pamanukan,-6.2842,107.8106,25.4,91,78,1.94,ID,1682097653
466,tofol,5.3248,163.0078,28.34,78,93,5.91,FM,1682097653
467,thisted,56.9552,8.6949,15.67,55,2,3.54,DK,1682097653
468,greenville,35.6127,-77.3663,29.52,30,0,2.24,US,1682097654
469,dryden,49.7833,-92.7503,-2.84,86,100,9.77,CA,1682097654
470,sabha,27.0377,14.4283,32.55,11,66,6.73,LY,1682097654
471,center,31.5107,-96.4247,22.22,68,40,4.63,US,1682097654
472,tralee,52.2704,-9.7026,10.14,81,100,1.54,IE,1682097654
473,guajara mirim,-10.7828,-65.3394,28.09,65,75,3.09,BR,1682097654
474,susuman,62.7833,148.1667,-12.01,97,100,2.11,RU,1682097655
475,christchurch,-43.5333,172.6333,13.84,93,75,2.57,NZ,1682097498
476,ghadamis,30.1337,9.5007,32.03,9,91,5.97,LY,1682097655
477,lazaro cardenas,17.9583,-102.2,29.21,55,11,3.88,MX,1682097655
478,gobabis,-22.45,18.9667,21.36,33,100,3.86,NA,1682097655
479,lieksa,63.3167,30.0167,2.58,93,97,1.42,FI,1682097656
480,fenoarivo be,-18.4333,46.5667,20.15,87,68,1.67,MG,1682097656
481,portland,45.5234,-122.6762,12.02,80,75,1.34,US,1682097606
482,diawara,15.022,-12.5437,38.11,12,100,4.55,SN,1682097656
483,sandnessjoen,66.0217,12.6316,7.29,87,75,0.89,NO,1682097656
484,labuan,5.2767,115.2417,28.2,83,20,1.54,MY,1682097656
485,parabel',58.6978,81.4825,-0.11,79,72,4.0,RU,1682097656
486,puerto pilon,9.3644,-79.7933,33.76,53,97,3.62,PA,1682097657
487,brady,31.1352,-99.3351,24.09,30,0,7.72,US,1682097657
488,luena,-11.7833,19.9167,19.1,94,99,0.0,AO,1682097657
489,neiafu,-18.65,-173.9833,25.38,83,20,3.6,TO,1682097657
490,paragominas,-2.9667,-47.4833,27.11,88,79,0.78,BR,1682097657
491,musanze,-1.4998,29.635,16.22,96,100,1.13,RW,1682097657
492,perry,37.2506,-83.1999,26.1,42,100,5.64,US,1682097658
493,qulsary,46.9531,54.0198,19.41,18,100,12.96,KZ,1682097658
494,jinchang,38.4953,102.1739,6.57,58,99,5.14,CN,1682097658
495,fort-shevchenko,44.5086,50.263,12.59,76,35,3.0,KZ,1682097658
496,box elder,41.5005,-112.8764,7.88,61,100,7.17,US,1682097658
497,muurame,62.1333,25.6667,13.31,98,100,0.67,FI,1682097659
498,kem',64.9555,34.5793,0.66,100,100,2.21,RU,1682097659
499,nizhneudinsk,54.9076,99.0276,-2.74,79,100,1.65,RU,1682097659
500,shagonar,51.5333,92.8,-1.54,68,74,0.83,RU,1682097659
501,tejen,37.3834,60.5054,23.06,9,0,5.29,TM,1682097659
502,mount pearl,47.5166,-52.7813,3.86,91,100,11.32,CA,1682097660
503,nizhniy kuranakh,58.8353,125.4869,-7.05,94,100,1.93,RU,1682097660
504,kharp,66.8014,65.8081,-7.5,92,48,2.81,RU,1682097660
505,tetiiv,49.3767,29.6647,7.42,89,100,2.73,UA,1682097660
506,bull savanna,17.8868,-77.5902,26.59,65,23,3.06,JM,1682097660
507,katsuren-haebaru,26.3369,127.8719,22.01,77,100,3.6,JP,1682097660
508,cill airne,52.05,-9.5167,10.03,81,100,1.54,IE,1682097661
509,egilsstadir,65.2653,-14.3948,1.95,75,75,8.75,IS,1682097661
510,antigonish,45.6169,-61.9986,8.64,87,100,6.18,CA,1682097661
511,kuqa,41.7278,82.9364,14.35,26,100,1.66,CN,1682097661
512,tvoroyri,61.5556,-6.8111,8.79,77,3,2.32,FO,1682097661
513,sangueya,10.7,-14.3667,30.25,52,100,5.22,GN,1682097662
514,koryazhma,61.3143,47.1691,4.15,89,94,2.08,RU,1682097662
515,ceeldheer,3.8488,47.1806,29.21,67,79,7.65,SO,1682097662
516,alachua,29.7086,-82.3332,29.38,48,0,1.79,US,1682097663
517,noumea,-22.2763,166.4572,25.56,99,51,3.26,NC,1682097663
518,beyneu,45.3167,55.2,19.14,18,99,11.53,KZ,1682097664
519,arraial do cabo,-22.9661,-42.0278,24.98,61,20,6.69,BR,1682097664
520,ad dawadimi,24.5077,44.3924,18.64,45,31,7.65,SA,1682097664
521,boende,-0.2167,20.8667,22.7,97,100,0.85,CD,1682097665
522,mareeba,-17.0,145.4333,22.4,99,33,0.71,AU,1682097666
523,ola,59.5833,151.2833,-1.07,82,87,9.91,RU,1682097666
524,mata-utu,-13.2816,-176.1745,27.87,75,33,3.36,WF,1682097666
525,kertih,4.5141,103.4483,27.01,94,76,0.0,MY,1682097667
526,ketchikan,55.3422,-131.6461,9.26,66,75,3.6,US,1682097667
527,margate,51.3813,1.3862,11.06,80,90,1.79,GB,1682096940
528,las khorey,11.1595,48.1967,29.04,72,86,3.21,SO,1682097668
529,richards bay,-28.783,32.0377,20.92,72,100,4.73,ZA,1682097668
530,beebe,35.0706,-91.8796,17.76,60,95,4.21,US,1682097520
531,gaspe,48.8334,-64.4819,5.12,70,20,7.2,CA,1682097451
532,puquio,-14.7,-74.1333,16.51,58,89,3.97,PE,1682097669
533,tateyama,34.9833,139.8667,15.4,67,100,9.65,JP,1682097669
534,al hufuf,25.3646,49.5653,30.19,11,0,2.57,SA,1682097669
535,serang,-6.1149,106.1502,25.99,86,78,0.93,ID,1682097669
536,kaifeng,34.7911,114.3483,7.55,71,97,8.85,CN,1682097670
537,terrace,54.5163,-128.6035,8.95,57,40,1.03,CA,1682097670
538,butte,39.6499,-121.5677,20.01,47,0,3.6,US,1682097670
539,mahina,-17.5065,-149.489,26.87,83,75,1.03,PF,1682097671
540,westfield,42.1251,-72.7495,23.39,42,0,4.63,US,1682097399
541,nizhniy odes,63.6445,54.856,-0.34,96,100,2.66,RU,1682097671
542,taroa,8.7058,171.2275,27.5,79,99,7.22,MH,1682097672
543,tadmur,34.5608,38.2805,19.26,39,10,4.24,SY,1682097672
544,jinxiang,27.4327,120.6062,15.96,91,30,2.29,CN,1682097673
545,jasper,37.2001,-94.3502,17.91,45,40,4.12,US,1682097598
546,central city,37.2939,-87.1233,16.13,97,100,2.06,US,1682097674
547,labytnangi,66.6572,66.4183,-9.46,93,44,2.0,RU,1682097674
548,emerald,-23.5333,148.1667,17.71,57,0,3.88,AU,1682097675
549,uribia,11.7139,-72.266,30.23,59,82,2.69,CO,1682097675
550,mugia,43.1041,-9.2179,15.51,79,82,6.36,ES,1682097675
551,itoman,26.1247,127.6694,22.01,78,100,9.26,JP,1682097676
552,bontang,0.1333,117.5,26.42,86,51,1.97,ID,1682097676
553,al ghayzah,16.2079,52.176,28.21,68,13,4.96,YE,1682097676
554,tura,25.5198,90.2201,21.48,71,59,3.82,IN,1682097677
555,tianchang,37.9981,114.0156,3.11,97,100,0.92,CN,1682097677
556,kirakira,-10.4544,161.9205,26.11,84,80,2.47,SB,1682097678
557,graham,47.0529,-122.2943,9.06,82,100,4.63,US,1682097678
558,yingkou,40.6648,122.2283,8.38,23,98,1.92,CN,1682097679
559,tomatlan,19.9333,-105.25,32.05,34,88,1.86,MX,1682097679
560,ciudad lazaro cardenas,17.9583,-102.2,29.21,55,11,3.88,MX,1682097655
561,tobelo,1.7284,128.0095,26.39,82,82,1.01,ID,1682097680
562,yorkton,51.2167,-102.4677,-1.09,64,20,9.26,CA,1682097680
563,lapy,52.9911,22.8842,15.17,62,82,3.12,PL,1682097680
564,erenhot,43.6475,111.9767,6.79,15,95,4.28,CN,1682097681
565,conceicao do araguaia,-8.2578,-49.2647,31.7,57,17,2.09,BR,1682097681
566,cannonvale,-20.2833,148.7,25.66,73,30,8.7,AU,1682097681
567,nyurba,63.2842,118.3319,-7.37,93,100,2.47,RU,1682097682
568,fada,9.5667,8.3,22.38,82,100,1.74,NG,1682097682
569,leshan,29.5623,103.7639,17.26,80,100,2.91,CN,1682097683
570,ponta delgada,37.7333,-25.6667,16.4,72,40,8.75,PT,1682097683
571,iquitos,-3.7481,-73.2472,26.02,94,75,0.51,PE,1682097683
572,roven'ky,48.0833,39.3776,6.81,91,93,2.13,UA,1682097683
573,newman,37.3138,-121.0208,21.13,33,32,4.02,US,1682097683
574,noosa heads,-26.3833,153.15,19.63,73,81,10.07,AU,1682097684
575,senillosa,-39.0,-68.4167,21.88,35,72,11.66,AR,1682097684
576,visakhapatnam,17.69,83.2093,27.94,94,4,1.03,IN,1682097685
577,bereket,39.2446,55.5154,25.73,11,60,8.33,TM,1682097685
578,khovd,48.0056,91.6419,-0.96,27,6,1.08,MN,1682097685
579,okhotsk,59.3833,143.3,-2.15,92,100,2.32,RU,1682097685
580,porto novo,6.4965,2.6036,29.68,69,86,4.61,BJ,1682097686
581,haiku-pauwela,20.9219,-156.3051,25.02,88,20,1.54,US,1682097686
